{
  "hero": {
    "title": "Popular Restaurants Near You",
    "subtitle": "Discover the best dining experiences in your area. View menus and book your table in seconds.",
    "location": "Indiranagar, Bengaluru"
  },
  "restaurants": [
    {
      "id": "1",
      "name": "Tee Cosy",
      "image": "https://images.unsplash.com/photo-1517248135467-4c7edcad34c4?ixlib=rb-4.0.3&auto=format&fit=crop&w=800&q=60",
      "rating": 4.8,
      "description": "Experience authentic flavors and exceptional dining in a warm, welcoming atmosphere",
      "deliveryTime": "25-40 min",
      "minOrder": "₹250",
      "cuisine": "Italian",
      "address": "123 Pasta Lane, Flavor Town",
      "phone": "(555) 123-4567",
      "openingHours": "11:00 AM - 10:00 PM"
    },
    {
      "id": "2",
      "name": "Spice Garden",
      "image": "https://images.unsplash.com/photo-1552566626-52f8b828add9?ixlib=rb-4.0.3&auto=format&fit=crop&w=800&q=60",
      "rating": 4.6,
      "description": "Authentic Indian cuisine with traditional spices and modern presentation",
      "deliveryTime": "30-45 min",
      "minOrder": "₹200",
      "cuisine": "Indian",
      "address": "456 Curry Lane, Spice District",
      "phone": "(555) 234-5678",
      "openingHours": "12:00 PM - 9:30 PM"
    },
    {
      "id": "3",
      "name": "Ocean Breeze",
      "image": "https://images.unsplash.com/photo-1559339352-11d035aa65de?ixlib=rb-4.0.3&auto=format&fit=crop&w=800&q=60",
      "rating": 4.9,
      "description": "Fresh seafood and coastal dining with ocean-to-table ingredients",
      "deliveryTime": "35-50 min",
      "minOrder": "₹500",
      "cuisine": "Seafood",
      "address": "789 Coastal Road, Bay Area",
      "phone": "(555) 987-6543",
      "openingHours": "12:00 PM - 11:00 PM"
    },
    {
      "id": "5",
      "name": "Prime Cut",
      "image": "https://images.unsplash.com/photo-1504674900247-0877df9cc836?ixlib=rb-4.0.3&auto=format&fit=crop&w=800&q=60",
      "rating": 4.8,
      "description": "Premium steaks and fine dining in an elegant, sophisticated setting",
      "deliveryTime": "45-60 min",
      "minOrder": "₹600",
      "cuisine": "Steakhouse",
      "address": "321 Grill Street, Meatpacking District",
      "phone": "(555) 456-7890",
      "openingHours": "04:00 PM - 11:00 PM"
    },
    {
      "id": "6",
      "name": "BLVY Bistro",
      "image": "https://images.unsplash.com/photo-1559339352-11d035aa65de?ixlib=rb-4.0.3&auto=format&fit=crop&w=800&q=60",
      "rating": 4.5,
      "description": "International cuisine blending flavors from around the world",
      "deliveryTime": "30-40 min",
      "minOrder": "₹250",
      "cuisine": "International",
      "address": "654 Global Ave, Fusion City",
      "phone": "(555) 789-0123",
      "openingHours": "08:00 AM - 10:00 PM"
    }
  ]
}
